{"objectIdFieldName":"ObjectId","uniqueIdField":{"name":"ObjectId","isSystemMaintained":true},"globalIdFieldName":"","geometryType":"esriGeometryPoint","spatialReference":{"wkid":102100,"latestWkid":3857},"transform":{"originPosition":"upperLeft","scale":[1.0583354500043074,1.0583354500043074],"translate":[10035936.00083909,2755460.149106408]},"fields":[{"name":"date","type":"esriFieldTypeDate","alias":"date","sqlType":"sqlTypeTimestamp2","length":8,"domain":null,"defaultValue":null},{"name":"division","type":"esriFieldTypeString","alias":"division","sqlType":"sqlTypeNVarchar","length":2147483647,"domain":null,"defaultValue":null},{"name":"district","type":"esriFieldTypeString","alias":"district","sqlType":"sqlTypeNVarchar","length":2147483647,"domain":null,"defaultValue":null},{"name":"city","type":"esriFieldTypeString","alias":"city","sqlType":"sqlTypeNVarchar","length":2147483647,"domain":null,"defaultValue":null},{"name":"population","type":"esriFieldTypeInteger","alias":"population","sqlType":"sqlTypeInteger","domain":null,"defaultValue":null},{"name":"cases","type":"esriFieldTypeInteger","alias":"cases","sqlType":"sqlTypeInteger","domain":null,"defaultValue":null},{"name":"recovered","type":"esriFieldTypeString","alias":"recovered","sqlType":"sqlTypeNVarchar","length":2147483647,"domain":null,"defaultValue":null},{"name":"death","type":"esriFieldTypeString","alias":"death","sqlType":"sqlTypeNVarchar","length":2147483647,"domain":null,"defaultValue":null},{"name":"geo_code","type":"esriFieldTypeInteger","alias":"geo_code","sqlType":"sqlTypeInteger","domain":null,"defaultValue":null},{"name":"lat","type":"esriFieldTypeDouble","alias":"lat","sqlType":"sqlTypeFloat","domain":null,"defaultValue":null},{"name":"long","type":"esriFieldTypeDouble","alias":"long","sqlType":"sqlTypeFloat","domain":null,"defaultValue":null},{"name":"adjusted_cases","type":"esriFieldTypeDouble","alias":"adjusted_cases","sqlType":"sqlTypeFloat","domain":null,"defaultValue":null},{"name":"labels","type":"esriFieldTypeString","alias":"labels","sqlType":"sqlTypeNVarchar","length":2147483647,"domain":null,"defaultValue":null},{"name":"ObjectId","type":"esriFieldTypeOID","alias":"ObjectId","sqlType":"sqlTypeInteger","domain":null,"defaultValue":null}],"features":[{"attributes":{"date":1589479200000,"division":"Dhaka","district":"Dhaka City","city":"Mohakhali","population":93143,"cases":223,"recovered":null,"death":null,"geo_code":30260720,"lat":23.7788,"long":90.40446,"adjusted_cases":2394.168107,"labels":"Mohakhali(223)","ObjectId":115},"geometry":{"x":26308,"y":27386}},{"attributes":{"date":1589479200000,"division":"Dhaka","district":"Dhaka City","city":"Jatrabari","population":535967,"cases":221,"recovered":null,"death":null,"geo_code":302629,"lat":23.71124,"long":90.43497,"adjusted_cases":412.3385942,"labels":"Jatrabari(221)","ObjectId":68},"geometry":{"x":29517,"y":35149}},{"attributes":{"date":1589479200000,"division":"Dhaka","district":"Dhaka City","city":"Rajarbagh","population":34867,"cases":204,"recovered":null,"death":null,"geo_code":30266805,"lat":23.74082,"long":90.41546,"adjusted_cases":5850.804486,"labels":"Rajarbagh(204)","ObjectId":139},"geometry":{"x":27465,"y":31750}},{"attributes":{"date":1589479200000,"division":"Dhaka","district":"Dhaka City","city":"Mohammadpur","population":472285,"cases":189,"recovered":null,"death":null,"geo_code":302650,"lat":23.76517,"long":90.36007,"adjusted_cases":400.182179,"labels":"Mohammadpur(189)","ObjectId":116},"geometry":{"x":21639,"y":28952}},{"attributes":{"date":1589479200000,"division":"Dhaka","district":"Dhaka City","city":"Mugda","population":42105,"cases":189,"recovered":null,"death":null,"geo_code":30265706,"lat":23.73185,"long":90.42981,"adjusted_cases":4488.778055,"labels":"Mugda(189)","ObjectId":120},"geometry":{"x":28974,"y":32781}},{"attributes":{"date":1589479200000,"division":"Dhaka","district":"Dhaka City","city":"Kakrail","population":55920,"cases":176,"recovered":null,"death":null,"geo_code":30266619,"lat":23.738821,"long":90.40702,"adjusted_cases":3147.353362,"labels":"Kakrail(176)","ObjectId":74},"geometry":{"x":26577,"y":31980}},{"attributes":{"date":1589479200000,"division":"Dhaka","district":"Dhaka City","city":"Tejgaon","population":114342,"cases":138,"recovered":null,"death":null,"geo_code":302690,"lat":23.76181,"long":90.39026,"adjusted_cases":1206.907087,"labels":"Tejgaon(138)","ObjectId":170},"geometry":{"x":24814,"y":29338}},{"attributes":{"date":1589479200000,"division":"Dhaka","district":"Dhaka City","city":"Lalbagh","population":395113,"cases":117,"recovered":null,"death":null,"geo_code":302642,"lat":23.72183,"long":90.38966,"adjusted_cases":296.1177059,"labels":"Lalbagh(117)","ObjectId":91},"geometry":{"x":24751,"y":33932}},{"attributes":{"date":1589479200000,"division":"Dhaka","district":"Dhaka City","city":"Babu Bazar","population":27735,"cases":115,"recovered":null,"death":null,"geo_code":30260930,"lat":23.71259,"long":90.39794,"adjusted_cases":4146.385434,"labels":"Babu Bazar(115)","ObjectId":12},"geometry":{"x":25622,"y":34994}},{"attributes":{"date":1589479200000,"division":"Dhaka","district":"Dhaka City","city":"Uttara","population":342247,"cases":104,"recovered":null,"death":null,"geo_code":30269501,"lat":23.87506,"long":90.37786,"adjusted_cases":303.8737215,"labels":"Uttara(104)","ObjectId":177},"geometry":{"x":23510,"y":16317}},{"attributes":{"date":1589479200000,"division":"Dhaka","district":"Dhaka City","city":"Mogbazar","population":70984,"cases":98,"recovered":null,"death":null,"geo_code":30266635,"lat":23.75112,"long":90.40753,"adjusted_cases":1380.59281,"labels":"Mogbazar(98)","ObjectId":114},"geometry":{"x":26631,"y":30567}},{"attributes":{"date":1589479200000,"division":"Dhaka","district":"Dhaka City","city":"Dhanmondi","population":276576,"cases":94,"recovered":null,"death":null,"geo_code":302616,"lat":23.74589,"long":90.37595,"adjusted_cases":339.8707714,"labels":"Dhanmondi(94)","ObjectId":41},"geometry":{"x":23309,"y":31168}},{"attributes":{"date":1589479200000,"division":"Dhaka","district":"Dhaka City","city":"Malibagh","population":70984,"cases":93,"recovered":null,"death":null,"geo_code":30266723,"lat":23.74644,"long":90.41354,"adjusted_cases":1310.154401,"labels":"Malibagh(93)","ObjectId":95},"geometry":{"x":27263,"y":31105}},{"attributes":{"date":1589479200000,"division":"Dhaka","district":"Dhaka City","city":"Badda","population":132016,"cases":90,"recovered":null,"death":null,"geo_code":30260413,"lat":23.78785,"long":90.42917,"adjusted_cases":681.7345129,"labels":"Badda(90)","ObjectId":13},"geometry":{"x":28907,"y":26345}},{"attributes":{"date":1589479200000,"division":"Dhaka","district":"Dhaka City","city":"Bangshal","population":310242,"cases":82,"recovered":null,"death":null,"geo_code":302605,"lat":23.71774,"long":90.40211,"adjusted_cases":264.3094224,"labels":"Bangshal(82)","ObjectId":18},"geometry":{"x":26061,"y":34402}},{"attributes":{"date":1589479200000,"division":"Dhaka","district":"Dhaka City","city":"Khilgaon","population":438333,"cases":80,"recovered":null,"death":null,"geo_code":302636,"lat":23.754987,"long":90.450095,"adjusted_cases":182.5095165,"labels":"Khilgaon(80)","ObjectId":82},"geometry":{"x":31108,"y":30122}},{"attributes":{"date":1589479200000,"division":"Dhaka","district":"Dhaka City","city":"Gendaria","population":85033,"cases":73,"recovered":null,"death":null,"geo_code":302624,"lat":23.70221,"long":90.42631,"adjusted_cases":858.4881076,"labels":"Gendaria(73)","ObjectId":51},"geometry":{"x":28606,"y":36186}},{"attributes":{"date":1589479200000,"division":"Dhaka","district":"Dhaka City","city":"Shahbag","population":179091,"cases":73,"recovered":null,"death":null,"geo_code":302675,"lat":23.74052,"long":90.39427,"adjusted_cases":407.614286,"labels":"Shahbag(73)","ObjectId":153},"geometry":{"x":25236,"y":31785}},{"attributes":{"date":1589479200000,"division":"Dhaka","district":"Dhaka City","city":"Chawk Bazar","population":191377,"cases":70,"recovered":null,"death":null,"geo_code":302609,"lat":23.717,"long":90.39609,"adjusted_cases":365.7697005,"labels":"Chawk Bazar(70)","ObjectId":34},"geometry":{"x":25427,"y":34487}},{"attributes":{"date":1589479200000,"division":"Dhaka","district":"Dhaka City","city":"Shaymoli","population":71260,"cases":65,"recovered":null,"death":null,"geo_code":30265032,"lat":23.770199,"long":90.363591,"adjusted_cases":912.1526803,"labels":"Shaymoli(65)","ObjectId":157},"geometry":{"x":22009,"y":28374}},{"attributes":{"date":1589479200000,"division":"Dhaka","district":"Dhaka City","city":"Wari","population":94573,"cases":64,"recovered":null,"death":null,"geo_code":30269838,"lat":23.71792,"long":90.41796,"adjusted_cases":676.7259154,"labels":"Wari(64)","ObjectId":179},"geometry":{"x":27728,"y":34382}},{"attributes":{"date":1589479200000,"division":"Dhaka","district":"Dhaka City","city":"Gulshan","population":257683,"cases":63,"recovered":null,"death":null,"geo_code":302626,"lat":23.79081,"long":90.40872,"adjusted_cases":244.4866536,"labels":"Gulshan(63)","ObjectId":59},"geometry":{"x":26756,"y":26005}},{"attributes":{"date":1589479200000,"division":"Dhaka","district":"Dhaka City","city":"Basabo","population":82701,"cases":58,"recovered":null,"death":null,"geo_code":30263004,"lat":23.74193,"long":90.43054,"adjusted_cases":701.3216285,"labels":"Basabo(58)","ObjectId":21},"geometry":{"x":29051,"y":31623}},{"attributes":{"date":1589479200000,"division":"Dhaka","district":"Dhaka City","city":"Rampura","population":208882,"cases":58,"recovered":null,"death":null,"geo_code":302667,"lat":23.7628,"long":90.42083,"adjusted_cases":277.6693491,"labels":"Rampura(58)","ObjectId":141},"geometry":{"x":28030,"y":29225}},{"attributes":{"date":1589479200000,"division":"Dhaka","district":"Dhaka City","city":"Agargaon","population":108193,"cases":57,"recovered":null,"death":null,"geo_code":30268041,"lat":23.77907,"long":90.37335,"adjusted_cases":526.8342683,"labels":"Agargaon(57)","ObjectId":4},"geometry":{"x":23036,"y":27355}},{"attributes":{"date":1589479200000,"division":"Dhaka","district":"Dhaka City","city":"Hazaribagh","population":133674,"cases":57,"recovered":null,"death":null,"geo_code":302628,"lat":23.73696,"long":90.36269,"adjusted_cases":426.4101715,"labels":"Hazaribagh(57)","ObjectId":63},"geometry":{"x":21914,"y":32194}},{"attributes":{"date":1589479200000,"division":"Dhaka","district":"Dhaka City","city":"Ramna","population":205515,"cases":50,"recovered":null,"death":null,"geo_code":302666,"lat":23.736346,"long":90.399165,"adjusted_cases":243.291524,"labels":"Ramna(50)","ObjectId":140},"geometry":{"x":25751,"y":32265}},{"attributes":{"date":1589479200000,"division":"Dhaka","district":"Dhaka City","city":"Swamibagh","population":44728,"cases":49,"recovered":null,"death":null,"geo_code":30262984,"lat":23.715139,"long":90.424581,"adjusted_cases":1095.507718,"labels":"Swamibagh(49)","ObjectId":167},"geometry":{"x":28424,"y":34701}},{"attributes":{"date":1589479200000,"division":"Dhaka","district":"Dhaka City","city":"Banani","population":96291,"cases":48,"recovered":null,"death":null,"geo_code":30260719,"lat":23.7937,"long":90.40429,"adjusted_cases":498.4889554,"labels":"Banani(48)","ObjectId":15},"geometry":{"x":26290,"y":25673}},{"attributes":{"date":1589479200000,"division":"Dhaka","district":"Dhaka City","city":"Mirpur-1","population":97033,"cases":48,"recovered":null,"death":null,"geo_code":30267408,"lat":23.79397,"long":90.35429,"adjusted_cases":494.6770686,"labels":"Mirpur-1(48)","ObjectId":105},"geometry":{"x":21031,"y":25642}},{"attributes":{"date":1589479200000,"division":"Dhaka","district":"Dhaka City","city":"Mirpur-11","population":157206,"cases":48,"recovered":null,"death":null,"geo_code":30264813,"lat":23.81597,"long":90.36624,"adjusted_cases":305.3318576,"labels":"Mirpur-11(48)","ObjectId":107},"geometry":{"x":22288,"y":23113}},{"attributes":{"date":1589479200000,"division":"Dhaka","district":"Dhaka City","city":"Jurain","population":38332,"cases":43,"recovered":null,"death":null,"geo_code":30269353,"lat":23.689317,"long":90.441382,"adjusted_cases":1121.778149,"labels":"Jurain(43)","ObjectId":70},"geometry":{"x":30191,"y":37667}},{"attributes":{"date":1589479200000,"division":"Dhaka","district":"Dhaka City","city":"Kamrangir Char","population":57555,"cases":42,"recovered":null,"death":null,"geo_code":30263451,"lat":23.71604,"long":90.36997,"adjusted_cases":729.741315,"labels":"Kamrangir Char(42)","ObjectId":78},"geometry":{"x":22680,"y":34598}},{"attributes":{"date":1589479200000,"division":"Dhaka","district":"Dhaka City","city":"Mirpur-14","population":71508,"cases":41,"recovered":null,"death":null,"geo_code":30263004,"lat":23.802615,"long":90.380372,"adjusted_cases":573.362421,"labels":"Mirpur-14(41)","ObjectId":110},"geometry":{"x":23774,"y":24648}},{"attributes":{"date":1589479200000,"division":"Dhaka","district":"Dhaka City","city":"Eskaton","population":55920,"cases":39,"recovered":null,"death":null,"geo_code":30266619,"lat":23.74686,"long":90.40159,"adjusted_cases":697.4248927,"labels":"Eskaton(39)","ObjectId":45},"geometry":{"x":26006,"y":31056}},{"attributes":{"date":1589479200000,"division":"Dhaka","district":"Dhaka City","city":"Farmgate","population":37983,"cases":38,"recovered":null,"death":null,"geo_code":30269025,"lat":23.756841,"long":90.38702,"adjusted_cases":1000.447569,"labels":"Farmgate(38)","ObjectId":48},"geometry":{"x":24473,"y":29909}},{"attributes":{"date":1589479200000,"division":"Dhaka","district":"Dhaka City","city":"Mitford","population":65289,"cases":38,"recovered":null,"death":null,"geo_code":30260930,"lat":23.71275,"long":90.4,"adjusted_cases":582.0276004,"labels":"Mitford(38)","ObjectId":113},"geometry":{"x":25839,"y":34976}},{"attributes":{"date":1589479200000,"division":"Dhaka","district":"Dhaka City","city":"Chankharpool","population":2802,"cases":37,"recovered":null,"death":null,"geo_code":30260533,"lat":23.72131,"long":90.400312,"adjusted_cases":13204.85368,"labels":"Chankharpool(37)","ObjectId":33},"geometry":{"x":25871,"y":33992}},{"attributes":{"date":1589479200000,"division":"Dhaka","district":"Dhaka City","city":"Green Road","population":38677,"cases":37,"recovered":null,"death":null,"geo_code":30263317,"lat":23.74913,"long":90.38646,"adjusted_cases":956.6408977,"labels":"Green Road(37)","ObjectId":57},"geometry":{"x":24414,"y":30796}},{"attributes":{"date":1589479200000,"division":"Dhaka","district":"Dhaka City","city":"Shantinagar","population":70984,"cases":37,"recovered":null,"death":null,"geo_code":30266513,"lat":23.73796,"long":90.41402,"adjusted_cases":521.2442241,"labels":"Shantinagar(37)","ObjectId":156},"geometry":{"x":27313,"y":32079}},{"attributes":{"date":1589479200000,"division":"Dhaka","district":"Dhaka City","city":"Sutrapur","population":46140,"cases":37,"recovered":null,"death":null,"geo_code":30268843,"lat":23.711868,"long":90.422109,"adjusted_cases":801.9072388,"labels":"Sutrapur(37)","ObjectId":166},"geometry":{"x":28164,"y":35077}},{"attributes":{"date":1589479200000,"division":"Dhaka","district":"Dhaka City","city":"Paltan","population":42105,"cases":34,"recovered":null,"death":null,"geo_code":30266512,"lat":23.730134,"long":90.410253,"adjusted_cases":807.5050469,"labels":"Paltan(34)","ObjectId":133},"geometry":{"x":26917,"y":32978}},{"attributes":{"date":1589479200000,"division":"Dhaka","district":"Dhaka City","city":"Maniknagar","population":58316,"cases":33,"recovered":null,"death":null,"geo_code":30265707,"lat":23.724751,"long":90.433835,"adjusted_cases":565.8824336,"labels":"Maniknagar(33)","ObjectId":99},"geometry":{"x":29398,"y":33597}},{"attributes":{"date":1589479200000,"division":"Dhaka","district":"Dhaka City","city":"Azimpur","population":44540,"cases":32,"recovered":null,"death":null,"geo_code":30264226,"lat":23.728,"long":90.3852,"adjusted_cases":718.4553211,"labels":"Azimpur(32)","ObjectId":11},"geometry":{"x":24282,"y":33223}},{"attributes":{"date":1589479200000,"division":"Dhaka","district":"Dhaka City","city":"Shakharibazar","population":23887,"cases":32,"recovered":null,"death":null,"geo_code":30264037,"lat":23.709936,"long":90.409628,"adjusted_cases":1339.640809,"labels":"Shakharibazar(32)","ObjectId":154},"geometry":{"x":26851,"y":35299}},{"attributes":{"date":1589479200000,"division":"Dhaka","district":"Dhaka City","city":"Manda","population":68931,"cases":30,"recovered":null,"death":null,"geo_code":30263601,"lat":23.730599,"long":90.44106,"adjusted_cases":435.2178265,"labels":"Manda(30)","ObjectId":97},"geometry":{"x":30157,"y":32925}},{"attributes":{"date":1589479200000,"division":"Dhaka","district":"Dhaka City","city":"Gopibag","population":21968,"cases":29,"recovered":null,"death":null,"geo_code":30267308,"lat":23.722595,"long":90.426402,"adjusted_cases":1320.101966,"labels":"Gopibag(29)","ObjectId":55},"geometry":{"x":28616,"y":33844}},{"attributes":{"date":1589479200000,"division":"Dhaka","district":"Dhaka City","city":"Lalmatia","population":302650,"cases":29,"recovered":null,"death":null,"geo_code":30265042,"lat":23.756566,"long":90.368868,"adjusted_cases":95.82025442,"labels":"Lalmatia(29)","ObjectId":92},"geometry":{"x":22564,"y":29941}},{"attributes":{"date":1589479200000,"division":"Dhaka","district":"Dhaka City","city":"Nakhalpara","population":18635,"cases":28,"recovered":null,"death":null,"geo_code":30269025,"lat":23.769645,"long":90.396265,"adjusted_cases":1502.548967,"labels":"Nakhalpara(28)","ObjectId":121},"geometry":{"x":25446,"y":28438}},{"attributes":{"date":1589479200000,"division":"Dhaka","district":"Dhaka City","city":"Kotwali","population":101608,"cases":27,"recovered":null,"death":null,"geo_code":302640,"lat":23.70958,"long":90.40807,"adjusted_cases":265.727084,"labels":"Kotwali(27)","ObjectId":88},"geometry":{"x":26687,"y":35340}},{"attributes":{"date":1589479200000,"division":"Dhaka","district":"Dhaka City","city":"Narinda","population":50419,"cases":27,"recovered":null,"death":null,"geo_code":30262440,"lat":23.7124,"long":90.41946,"adjusted_cases":535.512406,"labels":"Narinda(27)","ObjectId":122},"geometry":{"x":27886,"y":35016}},{"attributes":{"date":1589479200000,"division":"Dhaka","district":"Dhaka City","city":"Purana Paltan","population":89659,"cases":27,"recovered":null,"death":null,"geo_code":30266536,"lat":23.73178,"long":90.41207,"adjusted_cases":301.1409278,"labels":"Purana Paltan(27)","ObjectId":137},"geometry":{"x":27108,"y":32789}},{"attributes":{"date":1589479200000,"division":"Dhaka","district":"Dhaka City","city":"Kallyanpur","population":97033,"cases":26,"recovered":null,"death":null,"geo_code":30264811,"lat":23.781658,"long":90.358331,"adjusted_cases":267.9500788,"labels":"Kallyanpur(26)","ObjectId":76},"geometry":{"x":21456,"y":27057}},{"attributes":{"date":1589479200000,"division":"Dhaka","district":"Dhaka City","city":"Shah Jahanpur","population":21968,"cases":26,"recovered":null,"death":null,"geo_code":30267308,"lat":23.74119,"long":90.42408,"adjusted_cases":1183.539694,"labels":"Shah Jahanpur(26)","ObjectId":152},"geometry":{"x":28371,"y":31708}},{"attributes":{"date":1589479200000,"division":"Dhaka","district":"Dhaka City","city":"Adabor","population":285989,"cases":25,"recovered":null,"death":null,"geo_code":302602,"lat":23.77356,"long":90.35508,"adjusted_cases":87.41596564,"labels":"Adabor(25)","ObjectId":2},"geometry":{"x":21114,"y":27988}},{"attributes":{"date":1589479200000,"division":"Dhaka","district":"Dhaka City","city":"Mirpur-10","population":116544,"cases":24,"recovered":null,"death":null,"geo_code":30266403,"lat":23.80682,"long":90.36875,"adjusted_cases":205.9308072,"labels":"Mirpur-10(24)","ObjectId":106},"geometry":{"x":22552,"y":24165}},{"attributes":{"date":1589479200000,"division":"Dhaka","district":"Dhaka City","city":"Tikatuli","population":27882,"cases":24,"recovered":null,"death":null,"geo_code":30269841,"lat":23.719765,"long":90.422758,"adjusted_cases":860.7703895,"labels":"Tikatuli(24)","ObjectId":173},"geometry":{"x":28232,"y":34170}},{"attributes":{"date":1589479200000,"division":"Dhaka","district":"Dhaka City","city":"Kalabagan","population":192688,"cases":23,"recovered":null,"death":null,"geo_code":30263316,"lat":23.747083,"long":90.383205,"adjusted_cases":119.3642262,"labels":"Kalabagan(23)","ObjectId":75},"geometry":{"x":24072,"y":31031}},{"attributes":{"date":1589479200000,"division":"Dhaka","district":"Dhaka City","city":"Mirpur-12","population":71508,"cases":23,"recovered":null,"death":null,"geo_code":30266402,"lat":23.82799,"long":90.36408,"adjusted_cases":321.6423337,"labels":"Mirpur-12(23)","ObjectId":108},"geometry":{"x":22060,"y":21731}},{"attributes":{"date":1589479200000,"division":"Dhaka","district":"Dhaka City","city":"Panthapath","population":36214,"cases":23,"recovered":null,"death":null,"geo_code":30263351,"lat":23.751734,"long":90.385438,"adjusted_cases":635.1157549,"labels":"Panthapath(23)","ObjectId":134},"geometry":{"x":24307,"y":30496}},{"attributes":{"date":1589479200000,"division":"Dhaka","district":"Dhaka City","city":"Bashundhora","population":94650,"cases":21,"recovered":null,"death":null,"geo_code":30263717,"lat":23.82088,"long":90.44792,"adjusted_cases":221.8700475,"labels":"Bashundhora(21)","ObjectId":22},"geometry":{"x":30879,"y":22548}},{"attributes":{"date":1589479200000,"division":"Dhaka","district":"Dhaka City","city":"Raja Bazar","population":18635,"cases":21,"recovered":null,"death":null,"geo_code":30269027,"lat":23.753485,"long":90.38601,"adjusted_cases":1126.911725,"labels":"Raja Bazar(21)","ObjectId":138},"geometry":{"x":24367,"y":30295}},{"attributes":{"date":1589479200000,"division":"Dhaka","district":"Dhaka City","city":"Sher-E-Bangla Nagar","population":225160,"cases":21,"recovered":null,"death":null,"geo_code":302680,"lat":23.771082,"long":90.373583,"adjusted_cases":93.26693035,"labels":"Sher-E-Bangla Nagar(21)","ObjectId":159},"geometry":{"x":23060,"y":28273}},{"attributes":{"date":1589479200000,"division":"Dhaka","district":"Dhaka City","city":"Banasree","population":68931,"cases":20,"recovered":null,"death":null,"geo_code":30263603,"lat":23.76115,"long":90.43288,"adjusted_cases":290.1452177,"labels":"Banasree(20)","ObjectId":16},"geometry":{"x":29297,"y":29414}},{"attributes":{"date":1589479200000,"division":"Dhaka","district":"Dhaka City","city":"Demra","population":72087,"cases":20,"recovered":null,"death":null,"geo_code":30260457,"lat":23.719859,"long":90.477647,"adjusted_cases":277.4429079,"labels":"Demra(20)","ObjectId":38},"geometry":{"x":34006,"y":34159}},{"attributes":{"date":1589479200000,"division":"Dhaka","district":"Dhaka City","city":"Pallabi","population":491349,"cases":20,"recovered":null,"death":null,"geo_code":302664,"lat":23.830084,"long":90.361669,"adjusted_cases":40.70424534,"labels":"Pallabi(20)","ObjectId":132},"geometry":{"x":21807,"y":21490}},{"attributes":{"date":1589479200000,"division":"Dhaka","district":"Dhaka City","city":"Laxmibazar","population":19800,"cases":19,"recovered":null,"death":null,"geo_code":30268842,"lat":23.70951,"long":90.41476,"adjusted_cases":959.5959596,"labels":"Laxmibazar(19)","ObjectId":93},"geometry":{"x":27391,"y":35348}},{"attributes":{"date":1589479200000,"division":"Dhaka","district":"Dhaka City","city":"Shantibagh","population":59639,"cases":19,"recovered":null,"death":null,"geo_code":30266512,"lat":23.74506,"long":90.418164,"adjusted_cases":318.5834773,"labels":"Shantibagh(19)","ObjectId":155},"geometry":{"x":27749,"y":31263}},{"attributes":{"date":1589479200000,"division":"Dhaka","district":"Dhaka City","city":"Sonir akhra","population":43954,"cases":19,"recovered":null,"death":null,"geo_code":30262963,"lat":23.70849,"long":90.45453,"adjusted_cases":432.2701006,"labels":"Sonir akhra(19)","ObjectId":165},"geometry":{"x":31574,"y":35465}},{"attributes":{"date":1589479200000,"division":"Dhaka","district":"Dhaka City","city":"Tolarbag","population":51430,"cases":19,"recovered":null,"death":null,"geo_code":30264812,"lat":23.78926,"long":90.35135,"adjusted_cases":369.4341824,"labels":"Tolarbag(19)","ObjectId":174},"geometry":{"x":20721,"y":26183}},{"attributes":{"date":1589479200000,"division":"Dhaka","district":"Dhaka City","city":"Dhalpur","population":58741,"cases":18,"recovered":null,"death":null,"geo_code":30262962,"lat":23.715279,"long":90.434861,"adjusted_cases":306.4299212,"labels":"Dhalpur(18)","ObjectId":40},"geometry":{"x":29505,"y":34685}},{"attributes":{"date":1589479200000,"division":"Dhaka","district":"Dhaka City","city":"Hatirpool","population":34627,"cases":16,"recovered":null,"death":null,"geo_code":30267521,"lat":23.74204,"long":90.38795,"adjusted_cases":462.067173,"labels":"Hatirpool(16)","ObjectId":62},"geometry":{"x":24571,"y":31610}},{"attributes":{"date":1589479200000,"division":"Dhaka","district":"Dhaka City","city":"Elephant Road","population":67419,"cases":15,"recovered":null,"death":null,"geo_code":30267556,"lat":23.738966,"long":90.387204,"adjusted_cases":222.4876015,"labels":"Elephant Road(15)","ObjectId":44},"geometry":{"x":24493,"y":31963}},{"attributes":{"date":1589479200000,"division":"Dhaka","district":"Dhaka City","city":"Kamalapur","population":21968,"cases":15,"recovered":null,"death":null,"geo_code":30265410,"lat":23.73184,"long":90.426101,"adjusted_cases":682.811362,"labels":"Kamalapur(15)","ObjectId":77},"geometry":{"x":28584,"y":32782}},{"attributes":{"date":1589479200000,"division":"Dhaka","district":"Dhaka City","city":"Kawran Bazar","population":61744,"cases":15,"recovered":null,"death":null,"geo_code":30269026,"lat":23.752432,"long":90.393766,"adjusted_cases":242.9385851,"labels":"Kawran Bazar(15)","ObjectId":80},"geometry":{"x":25183,"y":30416}},{"attributes":{"date":1589479200000,"division":"Dhaka","district":"Dhaka City","city":"Sayedabad","population":60966,"cases":15,"recovered":null,"death":null,"geo_code":30262948,"lat":23.71462,"long":90.42803,"adjusted_cases":246.0387757,"labels":"Sayedabad(15)","ObjectId":148},"geometry":{"x":28787,"y":34761}},{"attributes":{"date":1589479200000,"division":"Dhaka","district":"Dhaka City","city":"Baridhara","population":41704,"cases":14,"recovered":null,"death":null,"geo_code":30262618,"lat":23.800927,"long":90.420906,"adjusted_cases":335.7006426,"labels":"Baridhara(14)","ObjectId":20},"geometry":{"x":28038,"y":24842}},{"attributes":{"date":1589479200000,"division":"Dhaka","district":"Dhaka City","city":"Cantonment","population":271455,"cases":14,"recovered":null,"death":null,"geo_code":302608,"lat":23.827312,"long":90.393635,"adjusted_cases":51.57388838,"labels":"Cantonment(14)","ObjectId":31},"geometry":{"x":25169,"y":21809}},{"attributes":{"date":1589479200000,"division":"Dhaka","district":"Dhaka City","city":"Fulbaria","population":111671,"cases":14,"recovered":null,"death":null,"geo_code":30267520,"lat":24.627999,"long":90.268242,"adjusted_cases":125.3678202,"labels":"Fulbaria(14)","ObjectId":50},"geometry":{"x":11980,"y":-70546}},{"attributes":{"date":1589479200000,"division":"Dhaka","district":"Dhaka City","city":"Goran","population":83309,"cases":14,"recovered":null,"death":null,"geo_code":30263624,"lat":23.75244,"long":90.433757,"adjusted_cases":168.049838,"labels":"Goran(14)","ObjectId":56},"geometry":{"x":29389,"y":30415}},{"attributes":{"date":1589479200000,"division":"Dhaka","district":"Dhaka City","city":"New market","population":49523,"cases":14,"recovered":null,"death":null,"geo_code":30266318,"lat":23.73323,"long":90.383713,"adjusted_cases":282.6969287,"labels":"New market(14)","ObjectId":127},"geometry":{"x":24126,"y":32623}},{"attributes":{"date":1589479200000,"division":"Dhaka","district":"Dhaka City","city":"Rayerbazar","population":72973,"cases":14,"recovered":null,"death":null,"geo_code":30265031,"lat":23.744571,"long":90.362051,"adjusted_cases":191.8517808,"labels":"Rayerbazar(14)","ObjectId":144},"geometry":{"x":21847,"y":31319}},{"attributes":{"date":1589479200000,"division":"Dhaka","district":"Dhaka City","city":"Baily Road","population":55920,"cases":13,"recovered":null,"death":null,"geo_code":30266619,"lat":23.74169,"long":90.40578,"adjusted_cases":232.4749642,"labels":"Baily Road(13)","ObjectId":14},"geometry":{"x":26447,"y":31650}},{"attributes":{"date":1589479200000,"division":"Dhaka","district":"Dhaka City","city":"Siddheshwari","population":13330,"cases":13,"recovered":null,"death":null,"geo_code":30265410,"lat":23.744297,"long":90.409959,"adjusted_cases":975.243811,"labels":"Siddheshwari(13)","ObjectId":163},"geometry":{"x":26886,"y":31351}},{"attributes":{"date":1589479200000,"division":"Dhaka","district":"Dhaka City","city":"Bokshi Bazar","population":22616,"cases":12,"recovered":null,"death":null,"geo_code":30260927,"lat":23.722831,"long":90.395052,"adjusted_cases":530.5978069,"labels":"Bokshi Bazar(12)","ObjectId":28},"geometry":{"x":25318,"y":33817}},{"attributes":{"date":1589479200000,"division":"Dhaka","district":"Dhaka City","city":"Mirpur-6","population":51430,"cases":12,"recovered":null,"death":null,"geo_code":30267006,"lat":23.81063,"long":90.36324,"adjusted_cases":233.326852,"labels":"Mirpur-6(12)","ObjectId":112},"geometry":{"x":21972,"y":23727}},{"attributes":{"date":1589479200000,"division":"Dhaka","district":"Dhaka City","city":"Rayerbagh","population":18170,"cases":12,"recovered":null,"death":null,"geo_code":30262962,"lat":23.692978,"long":90.456941,"adjusted_cases":660.429279,"labels":"Rayerbagh(12)","ObjectId":143},"geometry":{"x":31828,"y":37247}},{"attributes":{"date":1589479200000,"division":"Dhaka","district":"Dhaka City","city":"Dania","population":56766,"cases":11,"recovered":null,"death":null,"geo_code":30262950,"lat":23.700876,"long":90.443573,"adjusted_cases":193.7779657,"labels":"Dania(11)","ObjectId":36},"geometry":{"x":30422,"y":36340}},{"attributes":{"date":1589479200000,"division":"Dhaka","district":"Dhaka City","city":"Gulistan","population":59999,"cases":11,"recovered":null,"death":null,"geo_code":30266513,"lat":23.72268,"long":90.41382,"adjusted_cases":183.3363889,"labels":"Gulistan(11)","ObjectId":58},"geometry":{"x":27292,"y":33835}},{"attributes":{"date":1589479200000,"division":"Dhaka","district":"Dhaka City","city":"Jigatala","population":34719,"cases":11,"recovered":null,"death":null,"geo_code":30261616,"lat":23.74117,"long":90.37254,"adjusted_cases":316.8294018,"labels":"Jigatala(11)","ObjectId":69},"geometry":{"x":22950,"y":31710}},{"attributes":{"date":1589479200000,"division":"Dhaka","district":"Dhaka City","city":"Kazi para","population":92289,"cases":11,"recovered":null,"death":null,"geo_code":30264814,"lat":23.79714,"long":90.37269,"adjusted_cases":119.1908028,"labels":"Kazi para(11)","ObjectId":81},"geometry":{"x":22966,"y":25277}},{"attributes":{"date":1589479200000,"division":"Dhaka","district":"Dhaka City","city":"Mirpur-2","population":58082,"cases":11,"recovered":null,"death":null,"geo_code":30264807,"lat":23.80556,"long":90.35781,"adjusted_cases":189.3874178,"labels":"Mirpur-2(11)","ObjectId":111},"geometry":{"x":21401,"y":24309}},{"attributes":{"date":1589479200000,"division":"Dhaka","district":"Dhaka City","city":"Motijheel","population":316297,"cases":11,"recovered":null,"death":null,"geo_code":302654,"lat":23.734917,"long":90.418479,"adjusted_cases":34.77749222,"labels":"Motijheel(11)","ObjectId":119},"geometry":{"x":27782,"y":32429}},{"attributes":{"date":1589479200000,"division":"Dhaka","district":"Dhaka City","city":"Shyampur","population":101801,"cases":11,"recovered":null,"death":null,"geo_code":302676,"lat":23.684677,"long":90.447328,"adjusted_cases":108.0544072,"labels":"Shyampur(11)","ObjectId":162},"geometry":{"x":30817,"y":38200}},{"attributes":{"date":1589479200000,"division":"Dhaka","district":"Dhaka City","city":"Golapbagh","population":58316,"cases":10,"recovered":null,"death":null,"geo_code":30265773,"lat":23.72293,"long":90.438479,"adjusted_cases":171.4795253,"labels":"Golapbagh(10)","ObjectId":52},"geometry":{"x":29886,"y":33806}},{"attributes":{"date":1589479200000,"division":"Dhaka","district":"Dhaka City","city":"Kadamtali","population":520945,"cases":10,"recovered":null,"death":null,"geo_code":302632,"lat":23.70158,"long":90.39553,"adjusted_cases":19.19586831,"labels":"Kadamtali(10)","ObjectId":71},"geometry":{"x":25368,"y":36259}},{"attributes":{"date":1589479200000,"division":"Dhaka","district":"Dhaka City","city":"Nayabazar","population":44540,"cases":10,"recovered":null,"death":null,"geo_code":30264225,"lat":23.714525,"long":90.404507,"adjusted_cases":224.5172878,"labels":"Nayabazar(10)","ObjectId":124},"geometry":{"x":26313,"y":34772}},{"attributes":{"date":1589479200000,"division":"Dhaka","district":"Dhaka City","city":"Nazirabazar","population":50624,"cases":10,"recovered":null,"death":null,"geo_code":30260534,"lat":23.719231,"long":90.407302,"adjusted_cases":197.5347661,"labels":"Nazirabazar(10)","ObjectId":125},"geometry":{"x":26607,"y":34231}},{"attributes":{"date":1589479200000,"division":"Dhaka","district":"Dhaka City","city":"Segunbagicha","population":74069,"cases":10,"recovered":null,"death":null,"geo_code":30266635,"lat":23.732794,"long":90.407455,"adjusted_cases":135.0092481,"labels":"Segunbagicha(10)","ObjectId":150},"geometry":{"x":26623,"y":32673}},{"attributes":{"date":1589479200000,"division":"Dhaka","district":"Dhaka City","city":"Tati Bazar","population":26199,"cases":10,"recovered":null,"death":null,"geo_code":30264036,"lat":23.712295,"long":90.407485,"adjusted_cases":381.6939578,"labels":"Tati Bazar(10)","ObjectId":169},"geometry":{"x":26626,"y":35028}},{"attributes":{"date":1589479200000,"division":"Dhaka","district":"Dhaka City","city":"Bhatara","population":152706,"cases":9,"recovered":null,"death":null,"geo_code":30260457,"lat":23.804448,"long":90.425221,"adjusted_cases":58.93671348,"labels":"Bhatara(9)","ObjectId":26},"geometry":{"x":28491,"y":24437}},{"attributes":{"date":1589479200000,"division":"Dhaka","district":"Dhaka City","city":"Kathalbagan","population":38677,"cases":9,"recovered":null,"death":null,"geo_code":30263317,"lat":23.747551,"long":90.388963,"adjusted_cases":232.6964346,"labels":"Kathalbagan(9)","ObjectId":79},"geometry":{"x":24678,"y":30977}},{"attributes":{"date":1589479200000,"division":"Dhaka","district":"Dhaka City","city":"Neemtoli","population":96111,"cases":9,"recovered":null,"death":null,"geo_code":30260421,"lat":23.770996,"long":90.426436,"adjusted_cases":93.64172675,"labels":"Neemtoli(9)","ObjectId":126},"geometry":{"x":28619,"y":28283}},{"attributes":{"date":1589479200000,"division":"Dhaka","district":"Dhaka City","city":"Pirerbagh","population":71260,"cases":9,"recovered":null,"death":null,"geo_code":30264813,"lat":23.78831,"long":90.36747,"adjusted_cases":126.2980634,"labels":"Pirerbagh(9)","ObjectId":135},"geometry":{"x":22417,"y":26292}},{"attributes":{"date":1589479200000,"division":"Dhaka","district":"Dhaka City","city":"Sabujbagh","population":82701,"cases":9,"recovered":null,"death":null,"geo_code":302668,"lat":23.738752,"long":90.429494,"adjusted_cases":108.8257699,"labels":"Sabujbagh(9)","ObjectId":146},"geometry":{"x":28941,"y":31988}},{"attributes":{"date":1589479200000,"division":"Dhaka","district":"Dhaka City","city":"Shewrapara","population":71508,"cases":9,"recovered":null,"death":null,"geo_code":30264814,"lat":23.790383,"long":90.375514,"adjusted_cases":125.8600436,"labels":"Shewrapara(9)","ObjectId":160},"geometry":{"x":23263,"y":26054}},{"attributes":{"date":1589479200000,"division":"Dhaka","district":"Dhaka City","city":"Arambagh","population":21968,"cases":8,"recovered":null,"death":null,"geo_code":30265410,"lat":23.730307,"long":90.41972,"adjusted_cases":364.1660597,"labels":"Arambagh(8)","ObjectId":6},"geometry":{"x":27913,"y":32958}},{"attributes":{"date":1589479200000,"division":"Dhaka","district":"Dhaka City","city":"Kafrul","population":536397,"cases":8,"recovered":null,"death":null,"geo_code":302630,"lat":23.792525,"long":90.393544,"adjusted_cases":14.91432535,"labels":"Kafrul(8)","ObjectId":72},"geometry":{"x":25160,"y":25808}},{"attributes":{"date":1589479200000,"division":"Dhaka","district":"Dhaka City","city":"Matuail","population":382673,"cases":8,"recovered":null,"death":null,"geo_code":30262980,"lat":23.705483,"long":90.464365,"adjusted_cases":20.90559827,"labels":"Matuail(8)","ObjectId":101},"geometry":{"x":32609,"y":35810}},{"attributes":{"date":1589479200000,"division":"Dhaka","district":"Dhaka City","city":"Meradia","population":86931,"cases":8,"recovered":null,"death":null,"geo_code":30263603,"lat":23.757468,"long":90.432465,"adjusted_cases":92.02700993,"labels":"Meradia(8)","ObjectId":102},"geometry":{"x":29253,"y":29837}},{"attributes":{"date":1589479200000,"division":"Dhaka","district":"Dhaka City","city":"Mirpur-13","population":58082,"cases":8,"recovered":null,"death":null,"geo_code":30263004,"lat":23.80749,"long":90.37851,"adjusted_cases":137.7363038,"labels":"Mirpur-13(8)","ObjectId":109},"geometry":{"x":23578,"y":24088}},{"attributes":{"date":1589479200000,"division":"Dhaka","district":"Dhaka City","city":"Madartek","population":82701,"cases":7,"recovered":null,"death":null,"geo_code":30266804,"lat":23.740147,"long":90.429328,"adjusted_cases":84.64226551,"labels":"Madartek(7)","ObjectId":94},"geometry":{"x":28923,"y":31828}},{"attributes":{"date":1589479200000,"division":"Dhaka","district":"Dhaka City","city":"Postogola","population":66470,"cases":7,"recovered":null,"death":null,"geo_code":30261047,"lat":23.693534,"long":90.430346,"adjusted_cases":105.3106665,"labels":"Postogola(7)","ObjectId":136},"geometry":{"x":29031,"y":37183}},{"attributes":{"date":1589479200000,"division":"Dhaka","district":"Dhaka City","city":"Banglamotor","population":111671,"cases":6,"recovered":null,"death":null,"geo_code":30267557,"lat":23.746481,"long":90.393587,"adjusted_cases":53.72907067,"labels":"Banglamotor(6)","ObjectId":17},"geometry":{"x":25164,"y":31100}},{"attributes":{"date":1589479200000,"division":"Dhaka","district":"Dhaka City","city":"Dholaipar","population":56766,"cases":6,"recovered":null,"death":null,"geo_code":30262951,"lat":23.702627,"long":90.438419,"adjusted_cases":105.6970722,"labels":"Dholaipar(6)","ObjectId":43},"geometry":{"x":29880,"y":36138}},{"attributes":{"date":1589479200000,"division":"Dhaka","district":"Dhaka City","city":"Hatir jhil","population":63763,"cases":6,"recovered":null,"death":null,"geo_code":30266635,"lat":23.76926,"long":90.41314,"adjusted_cases":94.09845835,"labels":"Hatir jhil(6)","ObjectId":61},"geometry":{"x":27221,"y":28482}},{"attributes":{"date":1589479200000,"division":"Dhaka","district":"Dhaka City","city":"Ibrahimpur","population":142413,"cases":6,"recovered":null,"death":null,"geo_code":30263016,"lat":23.794072,"long":90.38343,"adjusted_cases":42.13098523,"labels":"Ibrahimpur(6)","ObjectId":64},"geometry":{"x":24096,"y":25630}},{"attributes":{"date":1589479200000,"division":"Dhaka","district":"Dhaka City","city":"Islampur","population":46140,"cases":6,"recovered":null,"death":null,"geo_code":30264037,"lat":23.70996,"long":90.40723,"adjusted_cases":130.0390117,"labels":"Islampur(6)","ObjectId":66},"geometry":{"x":26599,"y":35296}},{"attributes":{"date":1589479200000,"division":"Dhaka","district":"Dhaka City","city":"Kutubkhali","population":8102,"cases":6,"recovered":null,"death":null,"geo_code":30262962,"lat":23.707498,"long":90.442825,"adjusted_cases":740.5578869,"labels":"Kutubkhali(6)","ObjectId":90},"geometry":{"x":30343,"y":35579}},{"attributes":{"date":1589479200000,"division":"Dhaka","district":"Dhaka City","city":"Khilkhet","population":131671,"cases":5,"recovered":null,"death":null,"geo_code":302637,"lat":23.83085,"long":90.42636,"adjusted_cases":37.97335678,"labels":"Khilkhet(5)","ObjectId":83},"geometry":{"x":28611,"y":21402}},{"attributes":{"date":1589479200000,"division":"Dhaka","district":"Dhaka City","city":"Mintu Road","population":55920,"cases":5,"recovered":null,"death":null,"geo_code":30266619,"lat":23.811893,"long":90.417069,"adjusted_cases":89.41344778,"labels":"Mintu Road(5)","ObjectId":103},"geometry":{"x":27634,"y":23581}},{"attributes":{"date":1589479200000,"division":"Dhaka","district":"Dhaka City","city":"Mir hajirbagh","population":38322,"cases":5,"recovered":null,"death":null,"geo_code":30267651,"lat":23.70559,"long":90.42874,"adjusted_cases":130.4733573,"labels":"Mir hajirbagh(5)","ObjectId":104},"geometry":{"x":28862,"y":35798}},{"attributes":{"date":1589479200000,"division":"Dhaka","district":"Dhaka City","city":"Niketon","population":93143,"cases":5,"recovered":null,"death":null,"geo_code":30260720,"lat":23.774799,"long":90.411476,"adjusted_cases":53.68089926,"labels":"Niketon(5)","ObjectId":128},"geometry":{"x":27046,"y":27845}},{"attributes":{"date":1589479200000,"division":"Dhaka","district":"Dhaka City","city":"Tezturi Bazar","population":5475,"cases":5,"recovered":null,"death":null,"geo_code":30269026,"lat":23.756068,"long":90.392305,"adjusted_cases":913.2420091,"labels":"Tezturi Bazar(5)","ObjectId":172},"geometry":{"x":25029,"y":29998}},{"attributes":{"date":1589479200000,"division":"Dhaka","district":"Dhaka City","city":"Begunbari","population":103274,"cases":4,"recovered":null,"death":null,"geo_code":30269224,"lat":23.76358,"long":90.40268,"adjusted_cases":38.73191704,"labels":"Begunbari(4)","ObjectId":24},"geometry":{"x":26121,"y":29135}},{"attributes":{"date":1589479200000,"division":"Dhaka","district":"Dhaka City","city":"Gonoktuli","population":84519,"cases":4,"recovered":null,"death":null,"geo_code":30262822,"lat":23.732009,"long":90.370567,"adjusted_cases":47.32663661,"labels":"Gonoktuli(4)","ObjectId":54},"geometry":{"x":22743,"y":32763}},{"attributes":{"date":1589479200000,"division":"Dhaka","district":"Dhaka City","city":"Kuril","population":101829,"cases":4,"recovered":null,"death":null,"geo_code":30263717,"lat":23.820704,"long":90.423315,"adjusted_cases":39.28154062,"labels":"Kuril(4)","ObjectId":89},"geometry":{"x":28291,"y":22568}},{"attributes":{"date":1589479200000,"division":"Dhaka","district":"Dhaka City","city":"Malitola","population":32507,"cases":4,"recovered":null,"death":null,"geo_code":30268874,"lat":23.716001,"long":90.409987,"adjusted_cases":123.0517486,"labels":"Malitola(4)","ObjectId":96},"geometry":{"x":26889,"y":34602}},{"attributes":{"date":1589479200000,"division":"Dhaka","district":"Dhaka City","city":"Matikata","population":16993,"cases":4,"recovered":null,"death":null,"geo_code":30260815,"lat":23.820415,"long":90.3903,"adjusted_cases":235.3910434,"labels":"Matikata(4)","ObjectId":100},"geometry":{"x":24818,"y":22602}},{"attributes":{"date":1589479200000,"division":"Dhaka","district":"Dhaka City","city":"Nawabpur","population":15856,"cases":4,"recovered":null,"death":null,"geo_code":30260532,"lat":23.718789,"long":90.411912,"adjusted_cases":252.2704339,"labels":"Nawabpur(4)","ObjectId":123},"geometry":{"x":27092,"y":34282}},{"attributes":{"date":1589479200000,"division":"Dhaka","district":"Dhaka City","city":"Nilkhet","population":49523,"cases":4,"recovered":null,"death":null,"geo_code":30266318,"lat":23.732884,"long":90.385151,"adjusted_cases":80.77055106,"labels":"Nilkhet(4)","ObjectId":130},"geometry":{"x":24277,"y":32662}},{"attributes":{"date":1589479200000,"division":"Dhaka","district":"Dhaka City","city":"Paikpara","population":97033,"cases":4,"recovered":null,"death":null,"geo_code":30264811,"lat":23.788035,"long":90.359407,"adjusted_cases":41.22308905,"labels":"Paikpara(4)","ObjectId":131},"geometry":{"x":21569,"y":26324}},{"attributes":{"date":1589479200000,"division":"Dhaka","district":"Dhaka City","city":"Rasulbagh","population":44540,"cases":4,"recovered":null,"death":null,"geo_code":30260926,"lat":23.775875,"long":90.397844,"adjusted_cases":89.80691513,"labels":"Rasulbagh(4)","ObjectId":142},"geometry":{"x":25612,"y":27722}},{"attributes":{"date":1589479200000,"division":"Dhaka","district":"Dhaka City","city":"Sadarghat","population":32472,"cases":4,"recovered":null,"death":null,"geo_code":30264073,"lat":23.705792,"long":90.415063,"adjusted_cases":123.1840655,"labels":"Sadarghat(4)","ObjectId":147},"geometry":{"x":27423,"y":35775}},{"attributes":{"date":1589479200000,"division":"Dhaka","district":"Dhaka City","city":"Sipahibag","population":86931,"cases":4,"recovered":null,"death":null,"geo_code":30263675,"lat":23.752185,"long":90.432054,"adjusted_cases":46.01350496,"labels":"Sipahibag(4)","ObjectId":164},"geometry":{"x":29210,"y":30444}},{"attributes":{"date":1589479200000,"division":"Dhaka","district":"Dhaka City","city":"Tallabagh","population":59487,"cases":4,"recovered":null,"death":null,"geo_code":30263350,"lat":23.755625,"long":90.379704,"adjusted_cases":67.24125335,"labels":"Tallabagh(4)","ObjectId":168},"geometry":{"x":23704,"y":30049}},{"attributes":{"date":1589479200000,"division":"Dhaka","district":"Dhaka City","city":"Abdullahpur","population":342247,"cases":3,"recovered":null,"death":null,"geo_code":30269501,"lat":23.87976,"long":90.400929,"adjusted_cases":8.765588121,"labels":"Abdullahpur(3)","ObjectId":1},"geometry":{"x":25936,"y":15777}},{"attributes":{"date":1589479200000,"division":"Dhaka","district":"Dhaka City","city":"Armanitola","population":44540,"cases":3,"recovered":null,"death":null,"geo_code":30260535,"lat":23.714505,"long":90.401482,"adjusted_cases":67.35518635,"labels":"Armanitola(3)","ObjectId":7},"geometry":{"x":25995,"y":34774}},{"attributes":{"date":1589479200000,"division":"Dhaka","district":"Dhaka City","city":"Dayaganj","population":38322,"cases":3,"recovered":null,"death":null,"geo_code":30262440,"lat":23.70651,"long":90.42345,"adjusted_cases":78.2840144,"labels":"Dayaganj(3)","ObjectId":37},"geometry":{"x":28305,"y":35692}},{"attributes":{"date":1589479200000,"division":"Dhaka","district":"Dhaka City","city":"Fakirapool","population":42105,"cases":3,"recovered":null,"death":null,"geo_code":30265409,"lat":23.732787,"long":90.417214,"adjusted_cases":71.25044532,"labels":"Fakirapool(3)","ObjectId":46},"geometry":{"x":27649,"y":32673}},{"attributes":{"date":1589479200000,"division":"Dhaka","district":"Dhaka City","city":"Hajipara","population":160316,"cases":3,"recovered":null,"death":null,"geo_code":30266722,"lat":23.863881,"long":90.413254,"adjusted_cases":18.71304174,"labels":"Hajipara(3)","ObjectId":60},"geometry":{"x":27233,"y":17603}},{"attributes":{"date":1589479200000,"division":"Dhaka","district":"Dhaka City","city":"Islambagh","population":27777,"cases":3,"recovered":null,"death":null,"geo_code":30260929,"lat":23.713483,"long":90.388055,"adjusted_cases":108.0042333,"labels":"Islambagh(3)","ObjectId":65},"geometry":{"x":24582,"y":34891}},{"attributes":{"date":1589479200000,"division":"Dhaka","district":"Dhaka City","city":"kajla","population":56766,"cases":3,"recovered":null,"death":null,"geo_code":30262962,"lat":23.703594,"long":90.447035,"adjusted_cases":52.8485361,"labels":"kajla(3)","ObjectId":73},"geometry":{"x":30786,"y":36027}},{"attributes":{"date":1589479200000,"division":"Dhaka","district":"Dhaka City","city":"Kochukhet","population":70615,"cases":3,"recovered":null,"death":null,"geo_code":30266415,"lat":23.794774,"long":90.39028,"adjusted_cases":42.48389152,"labels":"Kochukhet(3)","ObjectId":84},"geometry":{"x":24816,"y":25549}},{"attributes":{"date":1589479200000,"division":"Dhaka","district":"Dhaka City","city":"Showari Ghat","population":8102,"cases":3,"recovered":null,"death":null,"geo_code":30260930,"lat":23.71135,"long":90.3942,"adjusted_cases":370.2789435,"labels":"Showari Ghat(3)","ObjectId":161},"geometry":{"x":25229,"y":35136}},{"attributes":{"date":1589479200000,"division":"Dhaka","district":"Dhaka City","city":"Tejkunipara","population":13709,"cases":3,"recovered":null,"death":null,"geo_code":30269040,"lat":23.762231,"long":90.392199,"adjusted_cases":218.8321926,"labels":"Tejkunipara(3)","ObjectId":171},"geometry":{"x":25018,"y":29290}},{"attributes":{"date":1589479200000,"division":"Dhaka","district":"Dhaka City","city":"Vasantek","population":75246,"cases":3,"recovered":null,"death":null,"geo_code":30262104,"lat":23.813451,"long":90.391251,"adjusted_cases":39.86922893,"labels":"Vasantek(3)","ObjectId":178},"geometry":{"x":24918,"y":23402}},{"attributes":{"date":1589479200000,"division":"Dhaka","district":"Dhaka City","city":"Aminbazar","population":71260,"cases":2,"recovered":null,"death":null,"geo_code":30261110,"lat":23.784294,"long":90.329997,"adjusted_cases":28.06623632,"labels":"Aminbazar(2)","ObjectId":5},"geometry":{"x":18475,"y":26754}},{"attributes":{"date":1589479200000,"division":"Dhaka","district":"Dhaka City","city":"Ashulia","population":101713,"cases":2,"recovered":null,"death":null,"geo_code":30267218,"lat":23.897264,"long":90.325888,"adjusted_cases":19.66320771,"labels":"Ashulia(2)","ObjectId":10},"geometry":{"x":18043,"y":13763}},{"attributes":{"date":1589479200000,"division":"Dhaka","district":"Dhaka City","city":"Central Road","population":79983,"cases":2,"recovered":null,"death":null,"geo_code":30263316,"lat":23.74186,"long":90.38761,"adjusted_cases":25.00531363,"labels":"Central Road(2)","ObjectId":32},"geometry":{"x":24535,"y":31631}},{"attributes":{"date":1589479200000,"division":"Dhaka","district":"Dhaka City","city":"Dholaikhal","population":46140,"cases":2,"recovered":null,"death":null,"geo_code":30269838,"lat":23.71367,"long":90.41375,"adjusted_cases":43.34633723,"labels":"Dholaikhal(2)","ObjectId":42},"geometry":{"x":27285,"y":34870}},{"attributes":{"date":1589479200000,"division":"Dhaka","district":"Dhaka City","city":"Forashganj","population":40043,"cases":2,"recovered":null,"death":null,"geo_code":30268843,"lat":23.704457,"long":90.412658,"adjusted_cases":49.94630772,"labels":"Forashganj(2)","ObjectId":49},"geometry":{"x":27170,"y":35928}},{"attributes":{"date":1589479200000,"division":"Dhaka","district":"Dhaka City","city":"Jailgate","population":25723,"cases":2,"recovered":null,"death":null,"geo_code":30260927,"lat":23.717498,"long":90.397707,"adjusted_cases":77.75142868,"labels":"Jailgate(2)","ObjectId":67},"geometry":{"x":25597,"y":34430}},{"attributes":{"date":1589479200000,"division":"Dhaka","district":"Dhaka City","city":"Nikunja","population":101829,"cases":2,"recovered":null,"death":null,"geo_code":30263717,"lat":23.82993,"long":90.41822,"adjusted_cases":19.64077031,"labels":"Nikunja(2)","ObjectId":129},"geometry":{"x":27755,"y":21508}},{"attributes":{"date":1589479200000,"division":"Dhaka","district":"Dhaka City","city":"Shah Ali Bagh","population":82474,"cases":2,"recovered":null,"death":null,"geo_code":30267408,"lat":23.79759,"long":90.3564,"adjusted_cases":24.25005375,"labels":"Shah Ali Bagh(2)","ObjectId":151},"geometry":{"x":21253,"y":25226}},{"attributes":{"date":1589479200000,"division":"Dhaka","district":"Dhaka City","city":"Aftabnagar","population":63763,"cases":1,"recovered":null,"death":null,"geo_code":30266722,"lat":23.765374,"long":90.441262,"adjusted_cases":15.68307639,"labels":"Aftabnagar(1)","ObjectId":3},"geometry":{"x":30179,"y":28929}},{"attributes":{"date":1589479200000,"division":"Dhaka","district":"Dhaka City","city":"Asad Gate","population":72973,"cases":1,"recovered":null,"death":null,"geo_code":30265032,"lat":23.760402,"long":90.372131,"adjusted_cases":13.70369863,"labels":"Asad Gate(1)","ObjectId":8},"geometry":{"x":22907,"y":29500}},{"attributes":{"date":1589479200000,"division":"Dhaka","district":"Dhaka City","city":"Ashkona","population":3391,"cases":1,"recovered":null,"death":null,"geo_code":30269501,"lat":23.85235,"long":90.41709,"adjusted_cases":294.8982601,"labels":"Ashkona(1)","ObjectId":9},"geometry":{"x":27636,"y":18929}},{"attributes":{"date":1589479200000,"division":"Dhaka","district":"Dhaka City","city":"Banianagar","population":3574,"cases":1,"recovered":null,"death":null,"geo_code":30264226,"lat":23.708653,"long":90.418845,"adjusted_cases":279.798545,"labels":"Banianagar(1)","ObjectId":19},"geometry":{"x":27821,"y":35446}},{"attributes":{"date":1589479200000,"division":"Dhaka","district":"Dhaka City","city":"Begum Bazar","population":23887,"cases":1,"recovered":null,"death":null,"geo_code":30260531,"lat":23.717365,"long":90.398748,"adjusted_cases":41.86377528,"labels":"Begum Bazar(1)","ObjectId":23},"geometry":{"x":25707,"y":34445}},{"attributes":{"date":1589479200000,"division":"Dhaka","district":"Dhaka City","city":"Beribadh","population":75246,"cases":1,"recovered":null,"death":null,"geo_code":30263717,"lat":23.89229,"long":90.36155,"adjusted_cases":13.28974298,"labels":"Beribadh(1)","ObjectId":25},"geometry":{"x":21794,"y":14335}},{"attributes":{"date":1589479200000,"division":"Dhaka","district":"Dhaka City","city":"Bijoynagar","population":89659,"cases":1,"recovered":null,"death":null,"geo_code":30266513,"lat":24.016839,"long":91.233258,"adjusted_cases":11.1533677,"labels":"Bijoynagar(1)","ObjectId":27},"geometry":{"x":113484,"y":0}},{"attributes":{"date":1589479200000,"division":"Dhaka","district":"Dhaka City","city":"Bosila","population":20186,"cases":1,"recovered":null,"death":null,"geo_code":30265033,"lat":23.75479,"long":90.35887,"adjusted_cases":49.53928465,"labels":"Bosila(1)","ObjectId":29},"geometry":{"x":21512,"y":30145}},{"attributes":{"date":1589479200000,"division":"Dhaka","district":"Dhaka City","city":"Buet Area","population":49523,"cases":1,"recovered":null,"death":null,"geo_code":30266318,"lat":23.72699,"long":90.39287,"adjusted_cases":20.19263776,"labels":"Buet Area(1)","ObjectId":30},"geometry":{"x":25089,"y":33340}},{"attributes":{"date":1589479200000,"division":"Dhaka","district":"Dhaka City","city":"Dakshinkhan","population":163514,"cases":1,"recovered":null,"death":null,"geo_code":30261038,"lat":23.859306,"long":90.426835,"adjusted_cases":6.115677817,"labels":"Dakshinkhan(1)","ObjectId":35},"geometry":{"x":28661,"y":18129}},{"attributes":{"date":1589479200000,"division":"Dhaka","district":"Dhaka City","city":"Dhakkeshori","population":44540,"cases":1,"recovered":null,"death":null,"geo_code":30263717,"lat":23.72106,"long":90.38912,"adjusted_cases":22.45172878,"labels":"Dhakkeshori(1)","ObjectId":39},"geometry":{"x":24694,"y":34021}},{"attributes":{"date":1589479200000,"division":"Dhaka","district":"Dhaka City","city":"Faridabagh","population":26199,"cases":1,"recovered":null,"death":null,"geo_code":30261047,"lat":23.695447,"long":90.422859,"adjusted_cases":38.16939578,"labels":"Faridabagh(1)","ObjectId":47},"geometry":{"x":28243,"y":36963}},{"attributes":{"date":1589479200000,"division":"Dhaka","district":"Dhaka City","city":"Golartek","population":71260,"cases":1,"recovered":null,"death":null,"geo_code":30261109,"lat":23.79396,"long":90.341052,"adjusted_cases":14.03311816,"labels":"Golartek(1)","ObjectId":53},"geometry":{"x":19638,"y":25643}},{"attributes":{"date":1589479200000,"division":"Dhaka","district":"Dhaka City","city":"Koltabazar","population":39097,"cases":1,"recovered":null,"death":null,"geo_code":30264072,"lat":23.7118,"long":90.41322,"adjusted_cases":25.57756456,"labels":"Koltabazar(1)","ObjectId":85},"geometry":{"x":27229,"y":35085}},{"attributes":{"date":1589479200000,"division":"Dhaka","district":"Dhaka City","city":"Koratitola","population":38332,"cases":1,"recovered":null,"death":null,"geo_code":30262440,"lat":23.714302,"long":90.425331,"adjusted_cases":26.08786393,"labels":"Koratitola(1)","ObjectId":86},"geometry":{"x":28503,"y":34797}},{"attributes":{"date":1589479200000,"division":"Dhaka","district":"Dhaka City","city":"Kosaituli","population":13531,"cases":1,"recovered":null,"death":null,"geo_code":30260532,"lat":23.716077,"long":90.40519,"adjusted_cases":73.90436775,"labels":"Kosaituli(1)","ObjectId":87},"geometry":{"x":26385,"y":34593}},{"attributes":{"date":1589479200000,"division":"Dhaka","district":"Dhaka City","city":"Manikdi","population":70615,"cases":1,"recovered":null,"death":null,"geo_code":30266415,"lat":23.82519,"long":90.39199,"adjusted_cases":14.16129717,"labels":"Manikdi(1)","ObjectId":98},"geometry":{"x":24996,"y":22053}},{"attributes":{"date":1589479200000,"division":"Dhaka","district":"Dhaka City","city":"Mohonpur","population":237880,"cases":1,"recovered":null,"death":null,"geo_code":30260243,"lat":23.773671,"long":90.360955,"adjusted_cases":4.203799981,"labels":"Mohonpur(1)","ObjectId":117},"geometry":{"x":21732,"y":27975}},{"attributes":{"date":1589479200000,"division":"Dhaka","district":"Dhaka City","city":"Monipur","population":77893,"cases":1,"recovered":null,"death":null,"geo_code":30264807,"lat":23.801066,"long":90.366604,"adjusted_cases":12.83808435,"labels":"Monipur(1)","ObjectId":118},"geometry":{"x":22326,"y":24826}},{"attributes":{"date":1589479200000,"division":"Dhaka","district":"Dhaka City","city":"Rosulpur","population":58741,"cases":1,"recovered":null,"death":null,"geo_code":30262962,"lat":23.704403,"long":90.441874,"adjusted_cases":17.02388451,"labels":"Rosulpur(1)","ObjectId":145},"geometry":{"x":30243,"y":35934}},{"attributes":{"date":1589479200000,"division":"Dhaka","district":"Dhaka City","city":"Science Lab","population":49523,"cases":1,"recovered":null,"death":null,"geo_code":30266318,"lat":23.737182,"long":90.383597,"adjusted_cases":20.19263776,"labels":"Science Lab(1)","ObjectId":149},"geometry":{"x":24113,"y":32168}},{"attributes":{"date":1589479200000,"division":"Dhaka","district":"Dhaka City","city":"Shekher Tek","population":17350,"cases":1,"recovered":null,"death":null,"geo_code":30265032,"lat":23.767995,"long":90.352802,"adjusted_cases":57.63688761,"labels":"Shekher Tek(1)","ObjectId":158},"geometry":{"x":20874,"y":28627}},{"attributes":{"date":1589479200000,"division":"Dhaka","district":"Dhaka City","city":"Turag","population":220014,"cases":1,"recovered":null,"death":null,"geo_code":30269351,"lat":23.87397,"long":90.369985,"adjusted_cases":4.545155565,"labels":"Turag(1)","ObjectId":175},"geometry":{"x":22682,"y":16443}},{"attributes":{"date":1589479200000,"division":"Dhaka","district":"Dhaka City","city":"Urdu Road","population":25723,"cases":1,"recovered":null,"death":null,"geo_code":30260928,"lat":23.71723,"long":90.39561,"adjusted_cases":38.87571434,"labels":"Urdu Road(1)","ObjectId":176},"geometry":{"x":25377,"y":34461}}]}
